City,Lat,Lng,Max Temp,Humidity,Cloudiness,Wind Speed,Country,Date
Henties Bay,-22.116,14.2845,66.99,86,33,1.01,NA,1612541812
Bethel,41.3712,-73.414,36.0,93,90,5.75,US,1612541812
Saint-François,46.4154,3.9054,53.01,82,0,4.61,FR,1612541812
Ushuaia,-54.8,-68.3,48.2,81,75,34.52,AR,1612541678
Mar del Plata,-38.0023,-57.5575,73.4,60,0,8.05,AR,1612541812
Kruisfontein,-34.0033,24.7314,78.01,62,0,7.0,ZA,1612541812
Brønnøysund,65.4625,12.1997,26.6,74,20,5.75,NO,1612541813
Yumen,40.2833,97.2,32.52,72,100,20.96,CN,1612541813
Albany,42.6001,-73.9662,36.0,63,100,3.0,US,1612541696
Dikson,73.5069,80.5464,-31.43,83,4,13.67,RU,1612541813
Ossora,59.2353,163.0719,1.11,91,92,3.71,RU,1612541813
Vaini,-21.2,-175.2,78.8,94,75,1.14,TO,1612541814
Castro,-24.7911,-50.0119,74.12,55,0,8.14,BR,1612541814
Vanimo,-2.6741,141.3028,79.45,81,100,3.91,PG,1612541814
San Cristobal,7.7669,-72.225,84.2,61,40,5.75,VE,1612541544
Ulladulla,-35.35,150.4667,72.0,88,75,11.5,AU,1612541814
‘Ewa Beach,21.3156,-158.0072,60.8,82,75,3.44,US,1612541814
Bluff,-46.6,168.3333,53.04,86,100,4.76,NZ,1612541814
Departamento de Maldonado,-34.6667,-54.9167,72.0,60,40,14.97,UY,1612541815
Mataura,-46.1927,168.8643,47.43,94,100,1.5,NZ,1612541815
Jamestown,42.097,-79.2353,28.4,69,90,21.85,US,1612541727
Geraldton,-28.7667,114.6,66.2,77,90,11.5,AU,1612541815
Punta Arenas,-53.15,-70.9167,55.4,50,20,24.16,CL,1612541746
Mitú,1.1983,-70.1733,83.77,65,99,1.81,CO,1612541815
Turan,16.0678,108.2208,68.0,94,20,1.14,VN,1612541815
Bredasdorp,-34.5322,20.0403,75.2,60,0,12.66,ZA,1612541816
Port Alfred,-33.5906,26.891,72.0,88,98,5.01,ZA,1612541816
Busselton,-33.65,115.3333,61.0,67,95,3.0,AU,1612541816
Qaanaaq,77.484,-69.3632,-14.06,72,25,6.49,GL,1612541711
Sitka,57.0531,-135.33,33.8,100,90,4.61,US,1612541816
Rikitea,-23.1203,-134.9692,78.13,71,40,12.08,PF,1612541817
Yuma,32.7253,-114.6244,55.4,30,1,6.15,US,1612541641
Luanda,-8.8368,13.2343,86.0,62,20,11.5,AO,1612541727
Saint-Philippe,-21.3585,55.7679,82.4,69,40,10.36,RE,1612541818
Atuona,-9.8,-139.0333,78.94,80,55,16.22,PF,1612541818
Te Anau,-45.4167,167.7167,53.91,91,89,0.43,NZ,1612541819
Marrakesh,31.6315,-8.0083,62.6,51,40,5.75,MA,1612541800
Mbaïki,3.8678,17.9892,97.88,14,35,4.47,CF,1612541654
Makakilo City,21.3469,-158.0858,60.8,82,75,3.44,US,1612541820
East London,-33.0153,27.9116,69.8,94,75,9.22,ZA,1612541820
Cherskiy,68.75,161.3,-13.14,78,0,7.9,RU,1612541821
Lyman,48.9884,37.8023,24.6,86,64,15.08,UA,1612541821
Saskylakh,71.9167,114.0833,-27.47,85,100,5.46,RU,1612541821
Yellowknife,62.456,-114.3525,-38.2,67,1,6.91,CA,1612541597
Chui,-33.6971,-53.4616,69.4,65,73,14.56,UY,1612541822
New Norfolk,-42.7826,147.0587,66.0,88,100,1.01,AU,1612541822
Broken Hill,-31.95,141.4333,66.2,39,0,11.5,AU,1612541823
Ribas do Rio Pardo,-20.4431,-53.7592,81.54,62,44,6.53,BR,1612541823
Ancud,-41.8697,-73.8203,80.6,29,0,19.57,CL,1612541823
Vanavara,60.34,102.2797,-1.28,93,100,4.45,RU,1612541823
Coquimbo,-29.9533,-71.3436,64.4,72,90,8.05,CL,1612541823
São Filipe,14.8961,-24.4956,72.07,70,100,16.15,CV,1612541824
Saint Paul Harbor,57.79,-152.4072,24.8,86,40,6.91,US,1612541824
Yurkivka,49.0126,31.1013,23.29,94,10,5.26,UA,1612541824
Guymon,36.6828,-101.4816,33.8,55,1,7.49,US,1612541824
Inhambane,-23.865,35.3833,78.01,88,75,4.61,MZ,1612541824
Thompson,55.7435,-97.8558,-16.6,69,75,8.05,CA,1612541601
Ponta do Sol,32.6667,-17.1,55.99,60,69,5.99,PT,1612541825
Richards Bay,-28.783,32.0377,78.64,84,25,5.75,ZA,1612541825
Hermanus,-34.4187,19.2345,75.99,71,0,5.01,ZA,1612541825
Russell,32.3502,-85.1999,54.0,82,90,9.22,US,1612541577
Angren,41.0167,70.1436,41.59,50,84,7.4,UZ,1612541826
Hithadhoo,-0.6,73.0833,82.89,78,100,14.76,MV,1612541827
Nikolskoye,59.7035,30.7861,7.0,78,40,11.18,RU,1612541827
Port Hardy,50.6996,-127.4199,42.8,87,90,5.75,CA,1612541827
Hilo,19.7297,-155.09,62.6,67,1,8.05,US,1612541572
Shar,49.5886,81.0453,25.27,96,100,9.33,KZ,1612541827
Goma,-1.6792,29.2228,68.85,74,83,3.15,CD,1612541828
Pizarro,4.9533,-77.366,81.72,83,91,2.68,CO,1612541828
Faanui,-16.4833,-151.75,80.87,69,80,7.85,PF,1612541828
Hobart,-42.8794,147.3294,69.8,83,90,10.36,AU,1612541635
Road Town,18.4167,-64.6167,84.2,65,40,12.66,VG,1612541828
Lebu,-37.6167,-73.65,64.53,72,50,13.0,CL,1612541828
Amapá,1.0,-52.0,82.81,79,72,3.15,BR,1612541828
Barrow,71.2906,-156.7887,-18.4,69,90,12.66,US,1612541702
Cape Town,-33.9258,18.4232,75.99,73,20,28.77,ZA,1612541566
Darhan,49.4867,105.9228,6.75,87,100,0.54,MN,1612541829
Victor Harbor,-35.5667,138.6167,64.0,93,63,10.0,AU,1612541829
Havre-St-Pierre,50.2334,-63.5986,33.8,93,90,13.8,CA,1612541829
The Valley,18.217,-63.0578,84.2,65,20,14.97,AI,1612541742
Verkhnyaya Inta,65.9811,60.3094,-2.11,92,100,6.93,RU,1612541830
Beringovskiy,63.05,179.3167,-5.96,90,100,11.79,RU,1612541830
Skjervøy,70.0311,20.9714,30.2,93,75,9.22,NO,1612541830
Kalmunai,7.4167,81.8167,76.33,86,95,8.34,LK,1612541830
Westport,41.1415,-73.3579,39.2,87,90,12.66,US,1612541831
Oudtshoorn,-33.5907,22.2014,73.4,78,20,8.05,ZA,1612541831
Grand Gaube,-20.0064,57.6608,79.0,77,0,3.0,MU,1612541831
La Ronge,55.1001,-105.2842,-25.6,68,3,10.36,CA,1612541832
Terråk,65.087,12.3715,26.6,74,20,5.75,NO,1612541832
Bonthe,7.5264,-12.505,87.22,52,95,12.39,SL,1612541832
Bengkulu,-3.8004,102.2655,77.56,85,81,4.29,ID,1612541832
Necochea,-38.5473,-58.7368,88.0,29,0,3.0,AR,1612541832
Chokurdakh,70.6333,147.9167,-14.85,88,98,13.24,RU,1612541832
Itarema,-2.9248,-39.9167,87.28,52,3,17.13,BR,1612541833
Pacifica,37.6138,-122.4869,48.99,66,1,4.63,US,1612541746
Isangel,-19.55,169.2667,77.0,94,20,2.17,VU,1612541833
Esperance,-33.8667,121.9,57.2,94,90,3.44,AU,1612541833
Port-Gentil,-0.7193,8.7815,86.0,79,75,13.8,GA,1612541833
Lompoc,34.6391,-120.4579,43.0,93,1,4.61,US,1612541833
Bontang,0.1333,117.5,78.66,85,100,7.76,ID,1612541834
Mahébourg,-20.4081,57.7,80.6,78,75,4.61,MU,1612541776
Lavrentiya,65.5833,-171.0,1.99,92,100,16.71,RU,1612541834
Coyhaique,-45.5752,-72.0662,75.2,41,0,3.44,CL,1612541810
Breves,-1.6822,-50.4803,92.25,48,27,5.41,BR,1612541835
Tuatapere,-46.1333,167.6833,52.48,89,89,1.7,NZ,1612541835
Ajdabiya,30.7554,20.2263,63.84,60,2,3.83,LY,1612541835
St-Jean-Port-Joli,47.2171,-70.2658,28.4,64,31,8.05,CA,1612541835
Vila Franca do Campo,37.7167,-25.4333,57.2,62,20,16.11,PT,1612541835
Kiryat Gat,31.61,34.7642,63.0,100,11,10.96,IL,1612541835
Katsuura,35.1333,140.3,53.6,40,75,19.57,JP,1612541835
Konongo,6.6167,-1.2167,94.59,37,55,3.15,GH,1612541835
Kaitangata,-46.2817,169.8464,51.01,80,95,4.0,NZ,1612541836
Tommot,58.9564,126.2925,-24.41,82,95,2.55,RU,1612541836
Wanning,18.8003,110.3967,68.61,88,54,6.69,CN,1612541836
Ribeira Grande,38.5167,-28.7,60.8,63,40,20.71,PT,1612541836
Sorong,-0.8833,131.25,81.63,76,100,3.67,ID,1612541836
Rongcheng,30.634,117.8517,46.98,91,12,2.98,CN,1612541836
Kahului,20.8947,-156.47,64.4,88,40,5.75,US,1612541837
Caravelas,-17.7125,-39.2481,87.64,60,71,13.4,BR,1612541837
Norman Wells,65.282,-126.8329,-27.4,68,75,19.57,CA,1612541837
São Luiz Gonzaga,-28.4083,-54.9608,75.49,52,0,11.23,BR,1612541837
Udachny,66.4167,112.4,-37.88,79,15,1.66,RU,1612541838
Naze,28.3667,129.4833,61.16,71,93,10.45,JP,1612541838
Ola,59.5833,151.2833,-3.98,84,99,14.5,RU,1612541838
Ferkessédougou,9.6,-5.2,102.09,13,17,3.98,CI,1612541838
Yabēlo,4.8833,38.0833,69.87,29,37,7.07,ET,1612541838
Roald,62.5833,6.1333,28.4,54,0,12.66,NO,1612541838
Tasiilaq,65.6145,-37.6368,21.2,63,20,4.61,GL,1612541838
Laguna,38.421,-121.4238,43.0,93,1,3.44,US,1612541838
Avera,33.194,-82.5271,55.4,86,90,6.91,US,1612541838
Kapaa,22.0752,-159.319,63.0,77,90,5.75,US,1612541839
Tuktoyaktuk,69.4541,-133.0374,-27.4,68,75,11.5,CA,1612541839
Bilibino,68.0546,166.4372,-20.29,80,9,4.34,RU,1612541839
Krapkowice,50.4752,17.9654,33.01,86,100,4.0,PL,1612541839
Butaritari,3.0707,172.7902,80.42,83,100,12.37,KI,1612541839
Santa Maria,-29.6842,-53.8069,71.6,64,75,9.22,BR,1612541769
Cabo San Lucas,22.8909,-109.9124,78.01,40,1,3.44,MX,1612541840
Panzhihua,26.5851,101.7128,46.99,47,0,0.69,CN,1612541840
Waipawa,-41.4122,175.5153,57.2,88,90,14.97,NZ,1612541841
Avarua,-21.2078,-159.775,73.4,100,75,2.3,CK,1612541564
Souillac,-20.5167,57.5167,80.6,78,75,4.61,MU,1612541841
Makkah al Mukarramah,21.4267,39.8261,62.83,66,100,9.6,SA,1612541841
Hauterive,46.0901,3.4459,55.4,71,0,5.75,FR,1612541841
Gouré,13.9835,10.2704,81.0,11,2,10.0,NE,1612541841
Touros,-5.1989,-35.4608,87.8,55,40,18.41,BR,1612541842
Oga,46.4631,10.347,46.0,81,40,3.44,IT,1612541842
Codrington,-38.2667,141.9667,54.84,87,45,12.1,AU,1612541842
Khatanga,71.9667,102.5,-27.13,79,41,8.63,RU,1612541842
Klaksvík,62.2266,-6.589,33.8,64,71,9.22,FO,1612541842
Puerto Ayora,-0.7393,-90.3518,84.2,65,75,19.57,EC,1612541728
Provideniya,64.3833,-173.3,4.86,90,100,22.1,RU,1612541842
Phan Thiet,10.9333,108.1,73.58,78,71,9.46,VN,1612541842
Pevek,69.7008,170.3133,-15.38,87,74,2.71,RU,1612541843
Nouadhibou,20.931,-17.0347,68.0,68,40,17.27,MR,1612541843
Tiksi,71.6872,128.8694,-17.63,89,100,16.08,RU,1612541843
Jacqueville,5.2052,-4.4146,87.8,74,20,10.36,CI,1612541843
Halifax,44.6453,-63.5724,36.0,80,75,14.97,CA,1612541843
Korla,41.7597,86.1469,29.41,82,65,4.83,CN,1612541844
Lagos,6.5833,3.75,87.73,64,0,9.24,NG,1612541642
Ilhabela,-23.7781,-45.3581,78.94,83,56,9.1,BR,1612541844
Vidim,56.4088,103.1106,4.17,94,100,4.76,RU,1612541844
Kluang,2.0251,103.3328,78.8,83,20,2.3,MY,1612541844
São Gabriel da Cachoeira,-0.1303,-67.0892,77.0,94,75,2.62,BR,1612541845
Sergeevka,53.88,67.4158,33.98,98,100,9.51,KZ,1612541845
Los Llanos de Aridane,28.6585,-17.9182,60.8,67,40,14.97,ES,1612541814
Paris,48.8534,2.3488,53.01,76,75,5.75,FR,1612541362
Urusha,54.05,122.9,-16.17,84,95,4.12,RU,1612541845
Nome,64.5011,-165.4064,17.01,73,90,21.85,US,1612541845
Salalah,17.0151,54.0924,75.2,64,40,5.75,OM,1612541845
Hong Kong,22.2855,114.1577,66.99,76,0,6.08,HK,1612541682
Ginir,7.1333,40.7,64.11,30,59,6.71,ET,1612541845
Abalak,58.1286,68.5944,27.48,99,100,6.2,RU,1612541846
Varhaug,58.6147,5.6457,26.6,46,0,13.8,NO,1612541846
Bambous Virieux,-20.3428,57.7575,80.6,78,75,4.61,MU,1612541846
Iracoubo,5.4802,-53.2011,79.34,82,90,13.58,GF,1612541847
Cockburn Town,21.4612,-71.1419,76.59,80,4,19.33,TC,1612541847
Saint-Pierre,-21.3393,55.4781,82.4,69,40,10.36,RE,1612541847
Hinton,53.4001,-117.5857,14.0,85,100,4.61,CA,1612541847
Sterling,39.0062,-77.4286,48.0,65,20,12.66,US,1612541847
Severo-Kuril'sk,50.6789,156.125,11.57,84,84,6.82,RU,1612541847
Camaná,-16.6228,-72.7111,74.86,66,41,8.03,PE,1612541848
Ixtapa,20.7,-105.2,68.0,56,1,3.44,MX,1612541848
Fortuna,40.5982,-124.1573,42.01,100,90,3.94,US,1612541848
Sakakah,29.9697,40.2064,59.0,67,20,5.75,SA,1612541848
Follonica,42.9263,10.7616,61.0,82,99,6.4,IT,1612541848
Srandakan,-7.9386,110.2506,77.92,85,94,4.18,ID,1612541848
Vao,-22.6667,167.4833,78.22,87,5,16.98,NC,1612541848
Osypenko,46.9136,36.8253,28.0,53,0,14.0,UA,1612541849
Mayo,38.8876,-76.5119,48.99,61,1,9.22,US,1612541849
Saint George,37.1041,-113.5841,35.6,48,1,1.03,US,1612541622
Kokopo,-4.352,152.2633,78.35,84,88,7.49,PG,1612541849
Carutapera,-1.195,-46.02,88.23,51,8,9.31,BR,1612541849
George Town,5.4112,100.3354,84.0,83,20,2.3,MY,1612541849
Cidreira,-30.1811,-50.2056,73.15,69,89,18.41,BR,1612541849
Pemba,-12.974,40.5178,84.0,78,75,10.36,MZ,1612541849
Poum,-20.2333,164.0167,79.27,77,9,5.57,NC,1612541850
Paraíso,9.8383,-83.8656,78.01,53,0,14.97,CR,1612541850
Mount Isa,-20.7333,139.5,84.2,61,40,10.36,AU,1612541850
Abu Dhabi,24.4667,54.3667,73.4,73,0,5.75,AE,1612541695
Valle del Guamuez,0.4525,-76.9192,80.6,78,75,2.3,CO,1612541850
Mirny,62.5353,113.9611,-36.31,82,45,2.01,RU,1612541850
Houma,29.5958,-90.7195,53.01,63,98,8.01,US,1612541851
Kattivākkam,13.2167,80.3167,75.2,64,0,4.61,IN,1612541851
Sharjah city,25.3573,55.4033,75.2,49,0,3.44,AE,1612541557
Moundou,8.5667,16.0833,98.37,9,15,7.02,TD,1612541851
Yangi Marg`ilon,40.4272,71.7189,33.8,69,100,2.3,UZ,1612541851
Huilong,31.8111,121.655,48.99,91,83,3.0,CN,1612541851
Saldanha,-33.0117,17.9442,77.0,57,2,23.02,ZA,1612541852
Suoyarvi,62.0833,32.35,4.86,92,100,11.05,RU,1612541852
Chapais,49.7834,-74.8492,21.2,79,1,17.27,CA,1612541852
Plettenberg Bay,-34.0527,23.3716,72.93,78,5,9.84,ZA,1612541852
Tottori-shi,35.5,134.2333,43.75,66,100,7.16,JP,1612541627
Abu Samrah,35.3029,37.1841,52.93,80,37,5.32,SY,1612541853
Forsytheganj,52.6333,29.7333,14.16,95,20,8.61,BY,1612541853
Ashland,40.8167,-82.2665,21.99,68,90,18.41,US,1612541853
Dingle,10.9995,122.6711,75.85,89,97,7.29,PH,1612541853
Yining,29.0361,114.5636,47.34,91,49,0.83,CN,1612541853
Belmonte,-15.8631,-38.8828,87.8,74,75,17.27,BR,1612541854
Carnarvon,-24.8667,113.6333,80.6,80,90,21.85,AU,1612541693
Gravelbourg,49.8834,-106.5512,-2.2,71,100,12.66,CA,1612541854
Warmbad,-28.45,18.7333,96.8,9,0,14.56,NA,1612541854
Lukovetskiy,64.2956,41.9211,1.4,78,75,15.66,RU,1612541854
Torbay,47.6666,-52.7314,43.0,93,75,19.57,CA,1612541854
Khovd,48.0056,91.6419,17.01,85,83,0.96,MN,1612541855
Meulaboh,4.1363,96.1285,79.05,79,84,3.42,ID,1612541855
Pouébo,-20.4,164.5667,75.72,82,2,2.26,NC,1612541855
Upernavik,72.7868,-56.1549,4.86,76,100,2.95,GL,1612541855
Los Andes,-32.8337,-70.5983,79.0,99,0,1.01,CL,1612541855
Leningradskiy,69.3833,178.4167,-13.22,87,100,9.22,RU,1612541855
Sinnamary,5.3833,-52.95,79.47,82,91,13.73,GF,1612541855
Lagoa,39.05,-27.9833,55.83,76,82,15.23,PT,1612541855
Makīnsk,52.6292,70.4169,26.91,99,85,8.43,KZ,1612541856
Gurupá,-1.405,-51.64,91.33,49,66,5.75,BR,1612541856
Chinsali,-10.5414,32.0816,68.74,92,89,4.5,ZM,1612541856
Port Elizabeth,-33.918,25.5701,73.4,78,40,13.8,ZA,1612541856
Ineu,46.4333,21.85,48.2,87,0,3.44,RO,1612541856
Faya,18.3851,42.4509,60.8,58,0,11.5,SA,1612541856
Chara,56.9064,118.2631,-11.06,76,98,1.74,RU,1612541857
La Unión,-5.4,-80.75,81.39,50,99,9.75,PE,1612541857
Narsaq,60.9167,-46.05,19.4,35,1,2.3,GL,1612541857
Shestakovo,56.4915,103.96,5.38,92,100,3.98,RU,1612541857
Newport,51.5877,-2.9984,46.99,98,56,12.24,GB,1612541626
Barra de Tecoanapa,16.5167,-98.75,81.46,67,24,3.06,MX,1612541858
Lichinga,-13.3128,35.2406,68.0,88,75,3.44,MZ,1612541858
Namatanai,-3.6667,152.4333,78.76,86,100,9.19,PG,1612541858
Cabedelo,-6.9811,-34.8339,87.8,58,20,12.66,BR,1612541859
Tongliao,43.6125,122.2653,12.31,92,4,2.73,CN,1612541859
Cayenne,4.9333,-52.3333,82.4,78,75,17.27,GF,1612541598
Longyearbyen,78.2186,15.6401,17.6,79,75,9.22,SJ,1612541585
Giyani,-23.3025,30.7187,77.5,86,96,7.76,ZA,1612541859
Qasigiannguit,68.8193,-51.1922,8.6,43,20,16.11,GL,1612541859
Rawson,-43.3002,-65.1023,81.48,35,0,20.33,AR,1612541859
Sørland,67.667,12.6934,35.6,75,40,11.5,NO,1612541859
Aguazul,5.1728,-72.5471,92.61,39,100,10.04,CO,1612541860
Constitución,-35.3333,-72.4167,63.21,72,83,6.67,CL,1612541860
Tongchuanshi,35.0806,109.0897,43.0,51,0,6.04,CN,1612541860
Taoudenni,22.6783,-3.9836,94.93,9,23,18.07,ML,1612541860
Guerrero Negro,27.9769,-114.0611,61.12,69,0,7.49,MX,1612541860
Margate,51.3813,1.3862,50.0,77,0,3.0,GB,1612541701
Padang,-0.9492,100.3543,78.8,89,40,2.3,ID,1612541860
Manchester,53.4809,-2.2374,48.0,81,75,3.44,GB,1612541761
Santa Cruz de la Sierra,-17.8,-63.1667,87.8,45,40,14.97,BO,1612541861
Griffith,41.5284,-87.4237,16.0,73,75,23.02,US,1612541861
Sioux Lookout,50.1001,-91.917,-9.4,70,90,16.11,CA,1612541861
Martinez,38.0194,-122.1341,46.99,81,1,3.27,US,1612541861
Kodinsk,58.6881,99.1844,0.7,92,98,4.63,RU,1612541861
Avila,40.5833,-5.0,50.0,79,77,4.0,ES,1612541862
Dourados,-22.2211,-54.8056,78.85,64,14,8.23,BR,1612541862
Okha,53.5739,142.9478,-7.96,89,99,19.55,RU,1612541862
Ghanzi,-21.5667,21.7833,77.27,71,99,4.07,BW,1612541862
Olafsvik,64.8945,-23.7142,38.7,77,100,35.05,IS,1612541862
Talara,-4.5772,-81.2719,77.0,69,75,10.36,PE,1612541862
Riwaka,-41.0833,173.0,55.99,64,47,1.01,NZ,1612541862
Kozhva,65.1073,57.0459,-2.76,92,100,6.4,RU,1612541862
Meadow Lake,34.8014,-106.5436,36.0,35,1,9.22,US,1612541707
Lenina,46.0667,39.7833,34.52,83,98,17.29,RU,1612541863
Haines Junction,60.7522,-137.5108,-27.4,68,62,1.14,CA,1612541863
Itoman,26.1247,127.6694,64.4,72,20,4.61,JP,1612541863
Talwandi Bhai,30.85,74.9333,51.58,64,8,3.24,IN,1612541863
Nola,40.922,14.5329,64.99,57,97,1.61,IT,1612541864
Zhigansk,66.7697,123.3711,-40.72,75,23,4.54,RU,1612541864
Karaton,-6.3424,106.1045,84.0,94,75,5.75,ID,1612541864
Bilma,18.6853,12.9164,79.14,16,3,6.78,NE,1612541864
Kosum Phisai,16.2486,103.0674,77.0,57,0,5.75,TH,1612541864
Pimentel,-6.8367,-79.9342,78.8,65,40,10.36,PE,1612541864
Presidencia Roque Sáenz Peña,-26.7852,-60.4388,86.0,39,43,4.0,AR,1612541864
Leverkusen,51.0333,7.0,53.01,76,100,3.24,DE,1612541865
Khandyga,62.6667,135.6,-38.76,80,100,1.61,RU,1612541865
Dubbo,-32.25,148.6167,69.8,88,90,17.27,AU,1612541865
Marzuq,14.4,46.4667,61.66,52,0,8.66,YE,1612541865
Lüderitz,-26.6481,15.1594,77.22,47,0,28.45,NA,1612541866
Clyde River,70.4692,-68.5914,-20.2,76,75,17.27,CA,1612541867
Metro,-5.1131,105.3067,75.45,92,100,7.38,ID,1612541867
Marsá Maţrūḩ,31.3525,27.2453,62.6,72,40,14.97,EG,1612541867
Pauini,-7.7136,-66.9764,74.55,97,100,2.82,BR,1612541867
Mount Gambier,-37.8333,140.7667,55.4,94,90,10.36,AU,1612541867
Emerald,-23.5333,148.1667,77.0,73,33,10.36,AU,1612541867
Muisne,0.6,-80.0333,78.8,100,90,10.36,EC,1612541868
Shellbrook,53.2168,-106.4011,-18.4,69,1,12.66,CA,1612541808
Usinsk,65.9939,57.5281,-7.44,90,100,11.23,RU,1612541868
Terney,45.0503,136.6092,13.51,90,43,6.15,RU,1612541868
Ambilobe,-13.2,49.05,77.14,87,98,2.48,MG,1612541868
Redmond,47.674,-122.1215,46.99,96,95,4.07,US,1612541741
Arraial do Cabo,-22.9661,-42.0278,84.2,74,75,4.61,BR,1612541869
West Sacramento,38.5805,-121.5302,43.0,93,1,3.44,US,1612541869
Lisala,2.15,21.5167,84.38,62,100,2.37,CD,1612541869
Bali,-8.5,115.0,78.8,94,40,4.61,ID,1612541869
Merauke,-8.4667,140.3333,79.52,88,99,15.84,ID,1612541869
Yulara,-25.2406,130.9889,71.6,28,37,8.05,AU,1612541869
La Rioja,42.25,-2.5,55.4,71,0,12.66,ES,1612541870
Ndioum,16.5129,-14.6471,78.8,44,0,4.61,SN,1612541870
Worcester,42.3334,-71.8328,36.0,80,90,8.05,US,1612541870
Kushtagi,15.7667,76.2,73.67,33,0,7.23,IN,1612541870
Chifeng,42.2683,118.9636,21.83,92,100,4.61,CN,1612541870
San Alberto,7.7611,-73.3922,91.0,47,31,4.94,CO,1612541871
Adeje,28.1227,-16.726,62.6,55,40,5.75,ES,1612541871
Port Blair,11.6667,92.75,79.11,80,14,8.84,IN,1612541581
Saint-Joseph,-21.3667,55.6167,82.4,69,40,10.36,RE,1612541871
Bahía Blanca,-38.7196,-62.2724,93.85,13,0,8.1,AR,1612541871
Pundaguitan,6.3711,126.1689,81.81,79,97,16.93,PH,1612541871
Toamasina,-18.1667,49.3833,84.2,79,40,5.75,MG,1612541871
Iqaluit,63.7506,-68.5145,19.4,79,75,17.27,CA,1612541833
Hamilton,39.1834,-84.5333,32.0,55,20,11.5,US,1612541872
Kavieng,-2.5744,150.7967,79.68,87,100,13.35,PG,1612541872
Bulgan,48.8125,103.5347,10.02,93,100,3.69,MN,1612541872
Cairns,-16.9167,145.7667,78.8,83,75,5.75,AU,1612541778
San Policarpo,12.1791,125.5072,80.56,85,81,12.28,PH,1612541872
Urbano Santos,-3.2078,-43.4036,90.48,53,29,6.42,BR,1612541872
São João da Barra,-21.6403,-41.0511,82.4,69,90,4.61,BR,1612541873
Zeya,53.75,127.2667,-21.44,81,80,1.21,RU,1612541873
Hasaki,35.7333,140.8333,39.2,87,75,14.14,JP,1612541680
Ulaangom,49.9811,92.0667,-6.63,89,44,1.23,MN,1612541873
Luganville,-15.5333,167.1667,77.77,81,97,2.42,VU,1612541873
Austin,30.2672,-97.7431,50.0,76,90,8.05,US,1612541504
Khotynets,53.1286,35.3966,7.7,95,99,10.02,RU,1612541874
Sarangani,5.4033,125.4636,82.62,76,100,18.43,PH,1612541874
Kirovsk,48.6375,38.6428,24.69,88,99,16.84,UA,1612541874
Athabasca,54.7169,-113.2854,-13.0,76,100,6.91,CA,1612541874
Pisco,-13.7,-76.2167,73.99,83,0,10.36,PE,1612541875
Cikupa,-6.2364,106.5083,84.0,94,75,5.75,ID,1612541873
Sfântu Gheorghe,45.8667,25.7833,46.0,77,37,0.69,RO,1612541876
Port Lincoln,-34.7333,135.8667,63.07,78,100,21.14,AU,1612541876
Sur,22.5667,59.5289,66.54,65,0,3.18,OM,1612541877
Northam,51.0333,-4.2167,45.0,92,29,4.0,GB,1612541877
Slonim,53.0867,25.3219,14.47,96,17,6.78,BY,1612541877
Arlit,18.7369,7.3853,85.62,12,19,5.84,NE,1612541877
Vestmannaeyjar,63.4427,-20.2734,37.4,81,20,25.32,IS,1612541877
Burnie,-41.0667,145.9167,64.99,99,100,18.7,AU,1612541877
Aden,12.7794,45.0367,75.25,68,9,15.88,YE,1612541778
Bereznehuvate,47.3078,32.8499,30.38,88,3,7.76,UA,1612541878
Staryy Nadym,65.6118,72.6842,-18.08,87,100,6.53,RU,1612541878
Nanortalik,60.1432,-45.2371,23.25,79,0,0.81,GL,1612541878
Arrondissement de Saint-Denis,48.9167,2.3333,53.01,76,90,8.05,FR,1612541878
Calvià,39.5657,2.5062,69.8,40,0,1.14,ES,1612541878
Pushkino,56.0172,37.8667,12.2,73,90,17.9,RU,1612541879
Corinth,37.9407,22.9573,55.0,69,89,1.01,GR,1612541879
San Jose,37.3394,-121.895,46.0,75,1,3.44,US,1612541822
Bull Savanna,17.8868,-77.5902,79.32,73,44,13.91,JM,1612541879
Egvekinot,66.3167,-179.1667,-15.16,91,100,19.04,RU,1612541879
Dogondoutchi,13.6393,4.0287,95.14,10,0,11.68,NE,1612541880
Jérémie,18.65,-74.1167,82.2,63,0,7.52,HT,1612541740
Samarai,-10.6167,150.6667,81.37,77,5,3.4,PG,1612541880
Ostrovnoy,68.0531,39.5131,12.81,92,100,15.1,RU,1612541880
Anadyr,64.75,177.4833,1.4,78,75,20.13,RU,1612541880
Iralaya,15.0,-83.2333,77.0,70,75,4.61,HN,1612541880
Ekhabi,53.5102,142.9671,-8.5,89,99,18.66,RU,1612541880
Patacamaya,-17.2333,-67.9167,56.61,53,75,5.97,BO,1612541881
Kudat,6.8837,116.8477,75.2,94,40,4.61,MY,1612541881
Derbent,42.0678,48.2899,48.78,77,62,2.08,RU,1612541881
Santana,-0.0583,-51.1817,91.4,62,75,9.22,BR,1612541881
Iguape,-24.7081,-47.5553,81.72,63,48,7.36,BR,1612541881
‘Āhuimanu,21.4447,-157.8378,62.6,82,40,4.61,US,1612541882
Mayuge,0.4597,33.4803,74.5,66,5,9.78,UG,1612541882
Damaturu,11.747,11.9608,87.01,15,1,16.13,NG,1612541882
Olinda,-8.0089,-34.8553,84.2,58,40,11.5,BR,1612541882
El Calvario,14.1167,-89.9167,78.8,50,0,2.3,GT,1612541883
Sinazongwe,-17.2614,27.4618,83.64,71,86,4.45,ZM,1612541883
Sisimiut,66.9395,-53.6735,12.06,74,13,9.51,GL,1612541883
Khipro,25.8285,69.3772,63.5,26,0,5.1,PK,1612541883
Maragogi,-9.0122,-35.2225,85.14,62,32,13.31,BR,1612541783
Nantucket,41.2835,-70.0995,42.01,87,90,10.36,US,1612541883
Yibin,28.7667,104.6238,54.3,70,0,1.3,CN,1612541884
Kaseda-shirakame,31.4167,130.3167,53.58,70,99,4.36,JP,1612541884
Sept-Îles,50.2001,-66.3821,37.0,93,100,2.3,CA,1612541879
Hay River,60.8156,-115.7999,-29.2,68,100,13.8,CA,1612541682
Grindavik,63.8424,-22.4338,37.4,81,75,26.46,IS,1612541884
Shimoda,34.6667,138.95,45.0,43,24,1.01,JP,1612541885
Rincon,32.296,-81.2354,60.8,63,90,10.36,US,1612541885
Qaqortoq,60.7167,-46.0333,19.4,35,1,2.3,GL,1612541885
Verāval,20.9,70.3667,71.04,57,0,11.52,IN,1612541885
Bétérou,9.1992,2.2586,102.15,9,3,4.74,BJ,1612541886
Lata,40.1629,-8.3327,54.0,85,100,1.01,PT,1612541886
Talnakh,69.4865,88.3972,-23.76,84,100,5.44,RU,1612541886
Chincha Alta,-13.4099,-76.1323,73.99,83,0,10.36,PE,1612541887
Portland,45.5234,-122.6762,45.0,93,100,4.0,US,1612541633
Suntar,62.1444,117.6319,-40.29,80,61,1.81,RU,1612541887
Toro,4.6117,-76.0814,77.0,57,40,6.91,CO,1612541888
Lakhīmpur,27.95,80.7667,59.11,73,21,5.93,IN,1612541888
Khani,41.9563,42.9566,48.2,87,90,17.27,GE,1612541888
George Town,5.4112,100.3354,84.0,83,20,2.3,MY,1612541849
Kabwe,-14.4469,28.4464,73.22,91,74,5.1,ZM,1612541889
Goderich,43.7501,-81.7165,24.8,86,100,24.16,CA,1612541889
Airai,-8.9266,125.4092,61.7,100,100,2.84,TL,1612541889
Gweta,-20.1833,25.2333,85.87,51,93,8.16,BW,1612541889
Kangaba,11.9333,-8.4167,102.58,8,82,3.58,ML,1612541889
Kinshasa,-4.3246,15.3215,93.2,52,40,2.3,CD,1612541634
Seguin,29.5688,-97.9647,53.6,40,90,18.41,US,1612541764
Nemuro,43.3236,145.575,22.75,88,4,9.93,JP,1612541597
Kwang Binh,17.4833,106.6,67.66,88,10,4.32,VN,1612541890
Knyaze-Volkonskoye,48.4642,135.4567,-4.0,59,0,4.47,RU,1612541891
Peniche,39.3558,-9.3811,55.99,80,100,15.01,PT,1612541891
Matagami,49.7502,-77.6328,21.2,79,1,9.22,CA,1612541850
South Valley,35.0101,-106.6781,39.99,35,1,9.22,US,1612541891
Mehamn,71.0357,27.8492,32.0,93,75,17.27,NO,1612541891
São José da Coroa Grande,-8.8978,-35.1478,84.83,63,22,12.88,BR,1612541892
Sabang,5.8933,95.3214,80.96,79,4,18.01,ID,1612541892
Rovaniemi,66.5,25.7167,12.2,92,0,11.5,FI,1612541892
Fukuechō,32.6881,128.8419,50.31,86,100,7.23,JP,1612541892
Naghadeh,36.9553,45.388,40.26,87,64,4.21,IR,1612541892
Ayabaca,-4.6398,-79.7149,60.15,91,83,4.92,PE,1612541892
Catuday,16.2923,119.8062,77.25,75,22,7.18,PH,1612541893
Yinzhu,35.8786,119.9753,43.0,75,0,2.24,CN,1612541893
Bandarbeyla,9.4942,50.8122,74.84,68,16,12.66,SO,1612541893
Toora-Khem,52.4675,96.11,1.31,90,60,1.36,RU,1612541893
College,64.8569,-147.8028,-20.99,82,1,5.75,US,1612541860
Klyuchi,52.2667,79.1667,25.74,98,95,6.33,RU,1612541893
Noumea,-22.2763,166.4572,79.0,94,90,3.44,NC,1612541894
Furtwangen im Schwarzwald,48.05,8.2,51.01,93,100,2.8,DE,1612541894
Punta de Bombón,-17.1717,-71.7931,73.71,70,87,8.12,PE,1612541894
Tessalit,20.1986,1.0114,90.37,10,4,8.48,ML,1612541894
Aykhal,66.0,111.5,-34.17,81,7,3.78,RU,1612541894
Conde,-7.2597,-34.9075,87.8,58,20,12.66,BR,1612541895
Cohoes,42.7742,-73.7001,37.0,80,100,1.01,US,1612541895
Sambava,-14.2667,50.1667,80.06,78,7,5.59,MG,1612541895
Sabha,27.0377,14.4283,71.71,21,13,6.02,LY,1612541895
Dalvik,65.9702,-18.5286,23.0,74,0,1.14,IS,1612541895
Berlevåg,70.8578,29.0864,26.6,93,75,17.27,NO,1612541895
Micheweni,-4.9667,39.8333,81.37,74,0,14.18,TZ,1612541895
Hongjiang,27.11,109.9956,48.45,85,99,1.59,CN,1612541896
Luba,3.4568,8.5547,89.6,70,40,11.5,GQ,1612541896
Greater Sudbury,46.49,-80.99,32.0,93,90,10.36,CA,1612541894
Gilgit,35.9221,74.3087,30.61,52,0,2.64,PK,1612541896
Arroyo de la Encomienda,41.6096,-4.7969,57.0,71,20,12.66,ES,1612541896
Arman',59.7,150.1667,-6.74,81,96,12.12,RU,1612541896
Quatre Cocos,-20.2078,57.7625,80.6,78,75,4.61,MU,1612541896
Ucar,40.519,47.6542,57.2,47,75,21.85,AZ,1612541896
Chamba,32.5667,76.1333,45.48,54,0,7.61,IN,1612541897
Buala,-8.145,159.5921,80.11,81,59,10.16,SB,1612541897
Ratnagiri,16.9833,73.3,74.79,66,0,8.72,IN,1612541833
Yaan,7.3833,8.5667,101.12,8,0,8.21,NG,1612541897
Bereda,43.2686,-7.5406,48.99,97,100,14.0,ES,1612541897
Adrar,20.5022,-10.0711,79.63,21,46,10.94,MR,1612541897
Hofn,64.2539,-15.2082,32.0,93,90,4.61,IS,1612541898
La Santisima Trinidad,-14.8333,-64.9,86.0,62,40,9.22,BO,1612541898
Kyaukse,21.6,96.1333,69.69,41,58,3.87,MM,1612541898
Stornoway,58.2093,-6.3865,39.2,75,75,21.85,GB,1612541898
Juneau,58.3019,-134.4197,17.6,93,40,3.44,US,1612541896
General Roca,-39.0333,-67.5833,93.2,27,0,10.36,AR,1612541898
Talen,23.5667,76.7167,62.83,41,0,8.61,IN,1612541899
Shingū,33.7333,135.9833,46.02,69,89,6.49,JP,1612541899
Mutatá,7.2441,-76.4356,86.83,61,79,3.18,CO,1612541899
Bonavista,48.6499,-53.1147,41.0,100,99,7.58,CA,1612541899
Ikare,7.4913,5.2322,98.85,17,1,4.14,NG,1612541899
Ilulissat,69.2167,-51.1,8.6,43,20,16.11,GL,1612541900
Wad Medani,14.4012,33.5199,74.34,18,10,13.42,SD,1612541900
Atar,20.5169,-13.0499,74.77,25,100,11.65,MR,1612541900
Sistranda,63.7256,8.834,19.4,93,40,11.5,NO,1612541900
Frutigen,46.5878,7.6475,48.0,69,100,1.99,CH,1612541900
Labuhan,-6.8844,112.2051,79.14,84,99,14.05,ID,1612541901
Soyo,-6.1349,12.3689,84.2,79,20,8.05,AO,1612541901
Hirara,24.8,125.2833,69.51,60,97,9.19,JP,1612541902
Itacaré,-14.2775,-38.9967,86.0,74,40,12.66,BR,1612541902
Kasangulu,-4.5911,15.1708,93.2,52,40,2.3,CD,1612541902
Carberry,49.8689,-99.3602,-0.4,71,75,13.8,CA,1612541903
Arrondissement du Havre,49.5833,0.3333,50.0,76,90,5.75,FR,1612541903
Zavetnoye,47.1194,43.8903,37.94,86,100,27.67,RU,1612541904
Simao,22.7886,100.9748,55.78,72,0,2.48,CN,1612541904
Huayucachi,-12.1333,-75.2333,59.22,56,100,2.8,PE,1612541904
Opuwo,-18.0607,13.84,88.12,27,85,4.5,NA,1612541904
Kidal,18.4411,1.4078,89.38,10,0,12.28,ML,1612541904
Khilok,51.3674,110.4676,-2.96,89,57,6.49,RU,1612541905
Mushie,-3.0167,16.9,90.18,54,10,2.59,CD,1612541905
Yatou,37.15,122.3833,40.19,85,0,11.68,CN,1612541905
Kutum,14.2,24.6667,67.48,24,0,17.13,SD,1612541905
Cullman,34.1748,-86.8436,43.0,65,1,6.42,US,1612541905
Cedar City,37.6775,-113.0619,26.6,63,1,3.44,US,1612541906
Kumul,42.8,93.45,30.06,85,100,0.89,CN,1612541906
Prince George,53.9166,-122.753,26.6,93,90,3.44,CA,1612541663
Severnoye,56.3491,78.3619,15.12,97,96,8.59,RU,1612541906
Kaniama,-7.5667,24.1833,76.82,87,19,2.91,CD,1612541907
Myitkyina,25.3833,97.4,60.35,47,0,2.82,MM,1612541907
Winneba,5.3511,-0.6231,84.2,70,0,4.61,GH,1612541771
Leshukonskoye,64.8989,45.7622,-7.53,89,100,9.82,RU,1612541907
Boundiali,9.5217,-6.4869,101.73,16,4,3.56,CI,1612541768
Abadan,38.0507,58.2056,55.4,38,31,2.3,TM,1612541907
Dunedin,-45.8742,170.5036,55.0,81,78,1.99,NZ,1612541908
Zyryanka,65.75,150.85,-14.22,89,100,7.96,RU,1612541908
Dobrić,44.7019,19.5814,57.0,60,68,1.01,RS,1612541908
São Miguel do Araguaia,-13.275,-50.1628,86.27,67,55,6.78,BR,1612541908
Puerto Madero,14.7208,-92.4215,82.4,69,75,5.75,MX,1612541908
Raudeberg,61.9875,5.1352,28.4,50,0,13.8,NO,1612541908
Aswān,24.0934,32.907,67.82,38,7,13.44,EG,1612541908
Mahon,39.8885,4.2658,64.4,59,0,8.05,ES,1612541909
Ust-Nera,64.5667,143.2,-16.65,79,100,3.62,RU,1612541909
Vestmanna,62.1564,-7.1664,33.8,64,30,9.22,FO,1612541909
Acapulco de Juárez,16.8634,-99.8901,82.4,69,75,2.3,MX,1612541821
Macia,-25.0269,33.0989,79.32,87,74,7.11,MZ,1612541909
Kununurra,-15.7667,128.7333,77.0,100,90,4.61,AU,1612541794
Sawtell,-30.3833,153.1,69.8,83,86,5.75,AU,1612541909
Creil,49.2567,2.4848,51.8,76,75,5.75,FR,1612541910
Ruteng,-8.6136,120.4721,63.99,100,100,1.5,ID,1612541910
Eyl,7.9803,49.8164,74.26,72,79,14.41,SO,1612541911
Ust-Maya,60.4167,134.5333,-31.07,83,100,2.46,RU,1612541911
Lobito,-12.3481,13.5456,80.06,68,34,6.08,AO,1612541911
Oranjestad,12.524,-70.027,86.0,66,20,25.32,AW,1612541912
Puerto Escondido,15.85,-97.0667,82.4,78,20,4.61,MX,1612541912
Bell Ville,-32.6259,-62.6887,82.0,52,0,4.23,AR,1612541913
Laela,-8.5667,32.05,67.5,90,62,2.35,TZ,1612541913
Waddān,29.1614,16.139,72.32,21,1,4.14,LY,1612541913
Kumluca,36.3703,30.2869,62.65,58,0,3.67,TR,1612541913
Havelock,34.8791,-76.9013,57.99,54,90,18.41,US,1612541787
Tazmalt,36.3868,4.3989,68.41,33,13,8.81,DZ,1612541914
Aras,42.5617,-2.356,55.4,71,0,12.66,ES,1612541914
Samarinda,-0.5,117.15,73.87,95,100,0.83,ID,1612541914
Dhāri,21.3333,71.0167,63.7,29,0,4.16,IN,1612541914
Novy Urengoy,66.0833,76.6333,-30.41,85,40,0.74,RU,1612541914
Koundara,12.4833,-13.3,105.3,7,87,3.13,GN,1612541915
Yar-Sale,66.8333,70.8333,-24.41,86,97,5.39,RU,1612541915
Joshīmath,30.5667,79.5667,31.78,71,93,6.82,IN,1612541915
Kushikino,31.7167,130.2667,49.8,74,99,4.9,JP,1612541915
Dayong,25.0209,118.2898,59.0,88,7,2.24,CN,1612541915
Senanga,-16.1167,23.2667,81.77,72,93,0.85,ZM,1612541915
Southampton,50.904,-1.4043,50.0,76,20,6.91,GB,1612541916
Altamont,42.2068,-121.7372,21.99,86,1,1.34,US,1612541916
Imbituba,-28.24,-48.6703,80.6,57,20,14.97,BR,1612541916
Yerofey Pavlovich,53.9667,121.9667,-11.99,84,100,4.5,RU,1612541916
Ruska Poliana,49.417,31.9201,22.21,95,3,6.42,UA,1612541916
Sola,-13.8833,167.55,80.85,80,100,9.4,VU,1612541916
Dhidhdhoo,6.8833,73.1,82.13,75,99,12.35,MV,1612541916
Vredendal,-31.6683,18.5012,80.42,42,0,20.0,ZA,1612541896
Kushima,31.4583,131.2333,50.76,66,94,2.66,JP,1612541917
Eirunepé,-6.6603,-69.8736,77.88,89,98,3.0,BR,1612541742
Tocopilla,-22.092,-70.1979,73.65,55,27,7.09,CL,1612541918
Verkhoyansk,67.5447,133.385,-32.78,80,99,2.37,RU,1612541918
